[{"name": "Henderson Peak", "height": 3999, "lat": 43.13745, "lon": -109.66098, "country": "United States"}, {"name": "Henderson Peak", "height": 3999, "lat": 43.1375, "lon": -109.661, "country": "United States"}, {"name": "Picture Peak", "height": 3999, "lat": 37.150795, "lon": -118.64922, "country": "United States"}, {"name": "Lawson Peak", "height": 3999, "lat": 36.55994, "lon": -118.51426, "country": "United States"}, {"name": "Cerro Jankho Khaua", "height": 3999, "lat": -16.11667, "lon": -69.05, "country": "Bolivia"}, {"name": "Cerro Paquere", "height": 3999, "lat": -19.72658, "lon": -67.92193, "country": "Bolivia"}, {"name": "Cerro Taipianta", "height": 3999, "lat": -19.93333, "lon": -68.45, "country": "Bolivia"}, {"name": "Amankeldy mountain", "height": 3999, "lat": 43.08972, "lon": 77.09694, "country": "Russian Empire, Soviet Union, Kazakhstan"}, {"name": "Klondike Peak", "height": 3999, "lat": 43.23638889, "lon": -109.68805556, "country": "United States"}, {"name": "Lizard Head", "height": 3999, "lat": 37.835827777, "lon": -107.950622222, "country": "United States"}, {"name": "Cerro Jachovinto", "height": 3998, "lat": -17.4767, "lon": -68.7225, "country": "Bolivia"}, {"name": "Loma Negro", "height": 3998, "lat": -20.43, "lon": -66.6608, "country": "Bolivia"}, {"name": "Cerro Ulacsa", "height": 3998, "lat": -19.83182, "lon": -68.20915, "country": "Bolivia"}, {"name": "Mount Lyell", "height": 3997, "lat": 37.7394, "lon": -119.272, "country": "United States"}, {"name": "Lomas Munay Pata", "height": 3997, "lat": -20.7928, "lon": -68.37405, "country": "Bolivia"}, {"name": "Loma Cachi Yan", "height": 3997, "lat": -20.3, "lon": -66.76667, "country": "Bolivia"}, {"name": "Kōh-e Daghdighī", "height": 3997, "lat": 33.593333333, "lon": 67.575, "country": "Afghanistan"}, {"name": "Chuymani", "height": 3996, "lat": -17.8125, "lon": -66.4333, "country": "Bolivia"}, {"name": "Cerro Huaca Plaza", "height": 3996, "lat": -17.0292, "lon": -68.6383, "country": "Bolivia"}, {"name": "Cerro Millane", "height": 3996, "lat": -16.2, "lon": -68.9, "country": "Bolivia"}, {"name": "Truchas Peak", "height": 3995, "lat": 35.962777777, "lon": -105.645277777, "country": "United States"}, {"name": "Mount Gilbert", "height": 3995, "lat": 37.1363688, "lon": -118.5982233, "country": "United States"}, {"name": "Piz Zupò", "height": 3995, "lat": 46.368333333, "lon": 9.931111111, "country": "Switzerland, Italy"}, {"name": "Cerro Lizani", "height": 3995, "lat": -20.42721, "lon": -66.06546, "country": "Bolivia"}, {"name": "Kōh-e Shakarī", "height": 3995, "lat": 35.418888888, "lon": 66.613055555, "country": "Afghanistan"}, {"name": "Merriam Peak", "height": 3994, "lat": 37.308888888, "lon": -118.765, "country": "United States"}, {"name": "Charybdis", "height": 3994, "lat": 37.086666666, "lon": -118.668333333, "country": "United States"}, {"name": "Cerro Chuchuni", "height": 3994, "lat": -17.51667, "lon": -68.7, "country": "Bolivia"}, {"name": "Cerro Nekheta", "height": 3994, "lat": -18.3613, "lon": -67.9937, "country": "Bolivia"}, {"name": "Piz Bianco", "height": 3993, "lat": 46.384611111, "lon": 9.9065, "country": "Switzerland"}, {"name": "Mt'a Shdavleri", "height": 3993, "lat": 43.130833333, "lon": 42.329444444, "country": "Georgia"}, {"name": "Caballo Kkollu Loma", "height": 3993, "lat": -18.705, "lon": -68.77889, "country": "Bolivia"}, {"name": "Kōh-e Paytow-Zard", "height": 3993, "lat": 33.558611111, "lon": 67.554444444, "country": "Afghanistan"}, {"name": "Cerros de las Minas", "height": 3992, "lat": -21.61667, "lon": -67.36667, "country": "Bolivia"}, {"name": "Cerro Tacora", "height": 3992, "lat": -19.12062, "lon": -65.85663, "country": "Bolivia"}, {"name": "Loma Trapiche", "height": 3992, "lat": -18.81996, "lon": -68.61809, "country": "Bolivia"}, {"name": "Kōh-e Hindūkush", "height": 3992, "lat": 35.400555555, "lon": 69.158888888, "country": "Afghanistan"}, {"name": "Cerro Khapa Khapana", "height": 3991, "lat": -18.17737, "lon": -68.07726, "country": "Bolivia"}, {"name": "Sar-e Rōbah", "height": 3991, "lat": 33.964444444, "lon": 66.668888888, "country": "Afghanistan"}, {"name": "Kōh-e Sabz Āb", "height": 3991, "lat": 34.775555555, "lon": 68.220277777, "country": "Afghanistan"}, {"name": "Mount Goode", "height": 3990, "lat": 37.123026944, "lon": -118.568106111, "country": "United States"}, {"name": "L'Epaule", "height": 3990, "lat": 46.06937, "lon": 7.6874, "country": "Switzerland"}, {"name": "Sumaco", "height": 3990, "lat": -0.5404, "lon": -77.6266, "country": "Ecuador"}, {"name": "Lawrani", "height": 3990, "lat": -17.92388889, "lon": -67.79111111, "country": "Bolivia"}, {"name": "Cerro Pallachita", "height": 3990, "lat": -16.94, "lon": -69.2742, "country": "Bolivia"}, {"name": "Cerro Toro Mokho", "height": 3990, "lat": -20.30021, "lon": -65.97307, "country": "Bolivia"}, {"name": "Mount Albert Edward", "height": 3990, "lat": -8.411, "lon": 147.404, "country": "Papua New Guinea"}, {"name": "Mount Huxley", "height": 3989, "lat": 37.136093, "lon": -118.6828, "country": "United States"}, {"name": "Winfield Peak", "height": 3988, "lat": 38.9771, "lon": -106.481, "country": "United States"}, {"name": "Kōh-e Nazbeh Takhtah", "height": 3988, "lat": 33.51, "lon": 67.623055555, "country": "Afghanistan"}, {"name": "Mont Mallet", "height": 3988, "lat": 45.86527778, "lon": 6.96055556, "country": "France"}, {"name": "Adlerhorn", "height": 3988, "lat": 46.009111111, "lon": 7.889027777, "country": "Switzerland"}, {"name": "Kōh-e Piringāl", "height": 3986, "lat": 35.217222222, "lon": 69.787777777, "country": "Afghanistan"}, {"name": "Mount Chiquita", "height": 3985, "lat": 40.4439, "lon": -105.689, "country": "United States"}, {"name": "Cerro Choque Chuani", "height": 3985, "lat": -16.1033, "lon": -68.6333, "country": "Bolivia"}, {"name": "Cerro Khala Tajjla", "height": 3985, "lat": -18.26435, "lon": -67.77718, "country": "Bolivia"}, {"name": "Cerro Jokho Kkota", "height": 3985, "lat": -18.50615, "lon": -68.641, "country": "Bolivia"}, {"name": "Cerro Puca Torre", "height": 3985, "lat": -20.57708, "lon": -66.07231, "country": "Bolivia"}, {"name": "Gvandra", "height": 3985, "lat": 43.205013, "lon": 42.080201, "country": "Republic of Abkhazia, Georgia, Russia"}, {"name": "Cerro Chullapani", "height": 3985, "lat": -18.7, "lon": -68.78333, "country": "Bolivia"}, {"name": "Cerro Bravo", "height": 3985, "lat": 5.089166666, "lon": -75.292222222, "country": "Colombia"}, {"name": "Fletschhorn", "height": 3985, "lat": 46.167777777, "lon": 8.003055555, "country": "Switzerland"}, {"name": "Boundary Peak 187", "height": 3984, "lat": 60.3075, "lon": -140.996944444, "country": "United States, Canada"}, {"name": "Cerro Llaulli Pata", "height": 3984, "lat": -17.15, "lon": -67.51667, "country": "Bolivia"}, {"name": "Hoyada Ulo", "height": 3984, "lat": -19.8293, "lon": -68.3327, "country": "Bolivia"}, {"name": "South Downs Mountain", "height": 3983, "lat": 43.2847, "lon": -109.685, "country": "United States"}, {"name": "Mount Genevra", "height": 3983, "lat": 36.6833075, "lon": -118.4343247, "country": "United States"}, {"name": "Broken Finger Peak", "height": 3983, "lat": 37.405555555, "lon": -118.7175, "country": "United States"}, {"name": "Cerro Pala Kkollu", "height": 3983, "lat": -18.67278, "lon": -68.90694, "country": "Bolivia"}, {"name": "Kōh-e Bāyan Darah", "height": 3983, "lat": 32.803055555, "lon": 66.761944444, "country": "Afghanistan"}, {"name": "Meije", "height": 3983, "lat": 45.004722222, "lon": 6.308611111, "country": "France"}, {"name": "Durīk Ghar", "height": 3983, "lat": 35.567222222, "lon": 71.521111111, "country": "Afghanistan"}, {"name": "Wheeler Peak", "height": 3982, "lat": 38.9861, "lon": -114.313, "country": "United States"}, {"name": "Kōh-e Sar-e Zanbūrak", "height": 3982, "lat": 34.6683, "lon": 66.6904, "country": "Afghanistan"}, {"name": "Gletscherhorn", "height": 3982, "lat": 46.512777777, "lon": 7.967777777, "country": "Switzerland"}, {"name": "Mount Dana", "height": 3981, "lat": 37.8999, "lon": -119.221, "country": "United States"}, {"name": "Pata Kkollu Loma", "height": 3981, "lat": -18.6694, "lon": -68.9092, "country": "Bolivia"}, {"name": "Kōh-e Birinjow", "height": 3981, "lat": 35.608888888, "lon": 66.527222222, "country": "Afghanistan"}, {"name": "Cerro Khuchu", "height": 3980, "lat": -19.68568, "lon": -65.11921, "country": "Bolivia"}, {"name": "Yuraq Q'asa", "height": 3980, "lat": -17.45805556, "lon": -66.48027778, "country": "Bolivia"}, {"name": "Achakanani", "height": 3980, "lat": -19.45361111, "lon": -65.71805556, "country": "Bolivia"}, {"name": "Sabi Loma", "height": 3980, "lat": -19.09351, "lon": -68.45959, "country": "Bolivia"}, {"name": "The Innominate", "height": 3980, "lat": 44.3983, "lon": -107.174, "country": "United States"}, {"name": "Mount Mary Austin", "height": 3980, "lat": 36.8158, "lon": -118.363, "country": "United States"}, {"name": "Harrower Peak", "height": 3980, "lat": 43.0936, "lon": -109.596, "country": "United States"}, {"name": "Harrower Peak", "height": 3980, "lat": 43.09412, "lon": -109.59515, "country": "United States"}, {"name": "Cerro Mojon Hunu", "height": 3979, "lat": -20.61274, "lon": -65.8442, "country": "Bolivia"}, {"name": "Cerro Sumar Ckasa", "height": 3979, "lat": -20.9083, "lon": -66.5542, "country": "Bolivia"}, {"name": "Cerro Sankha Pata", "height": 3979, "lat": -17.3492, "lon": -68.8625, "country": "Bolivia"}, {"name": "Cerro Coneri", "height": 3979, "lat": -18.76039, "lon": -68.63732, "country": "Bolivia"}, {"name": "Cerro Khomer", "height": 3977, "lat": -19.8077, "lon": -65.14101, "country": "Bolivia"}, {"name": "Cerro Oidor", "height": 3977, "lat": -21.84822, "lon": -66.33477, "country": "Bolivia"}, {"name": "Kōh-e Qalandarān", "height": 3977, "lat": 34.421944444, "lon": 68.376111111, "country": "Afghanistan"}, {"name": "Mount Solomons", "height": 3976, "lat": 37.1063, "lon": -118.674, "country": "United States"}, {"name": "Cerro Jankho Cruz", "height": 3976, "lat": -17.7233, "lon": -68.2183, "country": "Bolivia"}, {"name": "Surikhaua Loma", "height": 3976, "lat": -17.2592, "lon": -68.835, "country": "Bolivia"}, {"name": "Cerro Pasto Orkho", "height": 3976, "lat": -18.92434, "lon": -65.62526, "country": "Bolivia"}, {"name": "Jilarata Loma", "height": 3976, "lat": -18.52444, "lon": -68.95361, "country": "Bolivia"}, {"name": "Kōh-e Band-e Chōpānak", "height": 3976, "lat": 34.734166666, "lon": 66.548333333, "country": "Afghanistan"}, {"name": "Acatenango", "height": 3976, "lat": 14.500833333, "lon": -90.875833333, "country": "Guatemala"}, {"name": "West Elk Peak", "height": 3975, "lat": 38.7181, "lon": -107.199, "country": "United States"}, {"name": "Cerro Chita Pata", "height": 3975, "lat": -20.6483, "lon": -66.3642, "country": "Bolivia"}, {"name": "Schalihorn", "height": 3975, "lat": 46.084444444, "lon": 7.705, "country": "Switzerland"}, {"name": "Cerro Kkota Chaca", "height": 3974, "lat": -19.04807, "lon": -65.90566, "country": "Bolivia"}, {"name": "Cerro Wila Jakke Chico", "height": 3973, "lat": -18.65528, "lon": -68.73139, "country": "Bolivia"}, {"name": "Kōh-e Sar Kamar", "height": 3972, "lat": 36.181944444, "lon": 70.246666666, "country": "Afghanistan"}, {"name": "Gul Kōh", "height": 3972, "lat": 33.351666666, "lon": 67.836944444, "country": "Afghanistan"}, {"name": "Rottalhorn", "height": 3971, "lat": 46.532055555, "lon": 7.967305555, "country": "Switzerland"}, {"name": "Loma Cachajli", "height": 3971, "lat": -20.23333, "lon": -66.53333, "country": "Bolivia"}, {"name": "Cerro Araviri", "height": 3971, "lat": -18.76879, "lon": -67.68715, "country": "Bolivia"}, {"name": "Cerro Vila Punta", "height": 3971, "lat": -20.23384, "lon": -66.48262, "country": "Bolivia"}, {"name": "Abrunā Ghar", "height": 3971, "lat": 35.22, "lon": 71.131111111, "country": "Afghanistan"}, {"name": "Mount Whitecap", "height": 3970, "lat": 43.16856, "lon": -109.6921, "country": "United States"}, {"name": "Bow Mountain", "height": 3970, "lat": 43.14412, "lon": -109.68376, "country": "United States"}, {"name": "Mongun-Taiga", "height": 3970, "lat": 50.27944444, "lon": 90.12, "country": "Russia"}, {"name": "Cerro Lagunillas Orkho", "height": 3970, "lat": -19.49336, "lon": -65.07947, "country": "Bolivia"}, {"name": "Cerro Puchura", "height": 3970, "lat": -20.0244, "lon": -66.0218, "country": "Bolivia"}, {"name": "Chuncanvillo Loma", "height": 3970, "lat": -18.68972, "lon": -68.78556, "country": "Bolivia"}, {"name": "Band-e Yakh", "height": 3970, "lat": 35.305, "lon": 67.408888888, "country": "Afghanistan"}, {"name": "Jägerhorn", "height": 3970, "lat": 45.952277777, "lon": 7.877194444, "country": "Switzerland, Italy"}, {"name": "Piz Scerscen", "height": 3970, "lat": 46.37825, "lon": 9.900583333, "country": "Switzerland, Italy"}, {"name": "Grivola", "height": 3969, "lat": 45.596666666, "lon": 7.264444444, "country": "Italy"}, {"name": "Kōh-e Umal", "height": 3969, "lat": 35.3684, "lon": 70.9616, "country": "Afghanistan"}, {"name": "Mount Moffit", "height": 3969, "lat": 63.5683, "lon": -146.399, "country": "United States"}, {"name": "Cerro Queo Cachi", "height": 3968, "lat": -20.37067, "lon": -65.90453, "country": "Bolivia"}, {"name": "Eiger", "height": 3967, "lat": 46.577607529, "lon": 8.005286822, "country": "Switzerland"}, {"name": "Cerro Muthy Tambo", "height": 3967, "lat": -20.0932, "lon": -66.226, "country": "Bolivia"}, {"name": "Cerro Lipisa", "height": 3967, "lat": -17.2, "lon": -68.01667, "country": "Bolivia"}, {"name": "Yuzhno-Chuyskiy Khrebet", "height": 3967, "lat": 49.8167, "lon": 87.65, "country": "Russia"}, {"name": "Yuzhno-Chuyskiy Khrebet", "height": 3967, "lat": 49.726944444, "lon": 88.023055555, "country": "Russia"}, {"name": "Letanias Loma", "height": 3966, "lat": -17.0525, "lon": -68.1442, "country": "Bolivia"}, {"name": "Mahadev Peak", "height": 3966, "lat": 34.1524, "lon": 74.9873, "country": "India"}, {"name": "Mount Gould", "height": 3966, "lat": 36.779776111, "lon": -118.377876111, "country": "United States"}, {"name": "Black Tooth Mountain", "height": 3965, "lat": 44.403333333, "lon": -107.179444444, "country": "United States"}, {"name": "Mount Odishaw", "height": 3965, "lat": -84.7, "lon": 174.9, "country": ""}, {"name": "Kōh-e Siyāh Now", "height": 3965, "lat": 35.32, "lon": 69.0603, "country": "Afghanistan"}, {"name": "Kōh-e Kandū", "height": 3965, "lat": 36.610555555, "lon": 71.1175, "country": "Afghanistan"}, {"name": "Knife Point Mountain", "height": 3965, "lat": 43.0997, "lon": -109.577, "country": "United States"}, {"name": "Hitja Lakita Loma", "height": 3964, "lat": -20.7721, "lon": -66.3039, "country": "Bolivia"}, {"name": "Puntilla de Napa", "height": 3964, "lat": -20.48035, "lon": -68.61111, "country": "Bolivia"}, {"name": "Pico Miriquiri", "height": 3964, "lat": -16.98333, "lon": -68.58333, "country": "Bolivia"}, {"name": "Tochal", "height": 3964, "lat": 35.884166666, "lon": 51.419722222, "country": "Iran"}, {"name": "Seven Gables", "height": 3963, "lat": 37.311388888, "lon": -118.833611111, "country": "United States"}, {"name": "Pointe Sud de Moming", "height": 3963, "lat": 46.07291667, "lon": 7.69527778, "country": "Switzerland"}, {"name": "Kōh-e Qāb Jōy", "height": 3963, "lat": 33.113611111, "lon": 67.199444444, "country": "Afghanistan"}, {"name": "Cerro Jacha Jake", "height": 3962, "lat": -17.45, "lon": -68.71667, "country": "Bolivia"}, {"name": "Cerro Yareta Punta", "height": 3962, "lat": -20.86699, "lon": -65.77754, "country": "Bolivia"}, {"name": "Shira", "height": 3962, "lat": -3.03822222, "lon": 37.21040833, "country": "Tanzania"}, {"name": "Band-e Surkh Rēg", "height": 3962, "lat": 33.7425, "lon": 67.158055555, "country": "Afghanistan"}, {"name": "Grand Cornier", "height": 3962, "lat": 46.052222222, "lon": 7.611666666, "country": "Switzerland"}, {"name": "Cerro Sajrani", "height": 3961, "lat": -16.1408, "lon": -68.0283, "country": "Bolivia"}, {"name": "Umankkollu Lomas", "height": 3961, "lat": -18.68218, "lon": -68.63586, "country": "Bolivia"}, {"name": "Cerro Cahuincha", "height": 3961, "lat": -21.2142, "lon": -66.6567, "country": "Bolivia"}, {"name": "Ebnefluh", "height": 3961, "lat": 46.507969444, "lon": 7.953597222, "country": "Switzerland"}, {"name": "Jach'a Ch'uñu Uma", "height": 3960, "lat": -17.07333333, "lon": -67.59388889, "country": "Bolivia"}, {"name": "Ch'illiwani", "height": 3960, "lat": -17.40166667, "lon": -66.61527778, "country": "Bolivia"}, {"name": "Mount Morgan", "height": 3960, "lat": 37.5113, "lon": -118.78, "country": "United States"}, {"name": "Cerro Achuluni", "height": 3960, "lat": -15.6175, "lon": -69.2875, "country": "Bolivia"}, {"name": "Cerro Kancha", "height": 3959, "lat": -19.65065, "lon": -67.68861, "country": "Bolivia"}, {"name": "Cerro Titillaga", "height": 3959, "lat": -17.68333, "lon": -68.31667, "country": "Bolivia"}, {"name": "Cerro Sillata", "height": 3958, "lat": -20.70219, "lon": -65.04698, "country": "Bolivia"}, {"name": "Rodgers Peak", "height": 3958, "lat": 37.724971, "lon": -119.257506, "country": "United States"}, {"name": "Cerri Chaupi Loma", "height": 3957, "lat": -20.48695, "lon": -65.94152, "country": "Bolivia"}, {"name": "Ikh Bogd", "height": 3957, "lat": 44.995, "lon": 100.230833333, "country": "Mongolia"}, {"name": "Temple Crag", "height": 3957, "lat": 37.1097, "lon": -118.493, "country": "United States"}, {"name": "Mount Woolsey", "height": 3957, "lat": 44.4011, "lon": -107.177, "country": "United States"}, {"name": "Jatun Salla", "height": 3956, "lat": -17.55638889, "lon": -65.46194444, "country": "Bolivia"}, {"name": "Nudo de Cuzco", "height": 3956, "lat": -19.9, "lon": -66.75, "country": "Bolivia"}, {"name": "Temple Peak", "height": 3955, "lat": 42.6986, "lon": -109.171, "country": "United States"}, {"name": "Soche", "height": 3955, "lat": 0.552, "lon": -77.58, "country": "Ecuador"}, {"name": "Kōh-e Safēd", "height": 3955, "lat": 33.941944444, "lon": 66.545, "country": "Afghanistan"}, {"name": "Kōh-e Ladū", "height": 3954, "lat": 35.233333333, "lon": 68.421944444, "country": "Afghanistan"}, {"name": "Namak Raykhtah", "height": 3954, "lat": 35.269722222, "lon": 68.473333333, "country": "Afghanistan"}, {"name": "Ailefroide", "height": 3954, "lat": 44.885, "lon": 6.356111, "country": "France"}, {"name": "Mount Robson", "height": 3954, "lat": 53.110555555, "lon": -119.156666666, "country": "Canada"}, {"name": "Engineer Mountain", "height": 3954, "lat": 37.699166666, "lon": -107.806944444, "country": "United States"}, {"name": "Cerro Muru Chullpa", "height": 3953, "lat": -18.68611, "lon": -68.90667, "country": "Bolivia"}, {"name": "Band-e Ashnām", "height": 3953, "lat": 36.581388888, "lon": 70.631666666, "country": "Afghanistan"}, {"name": "Descabezado Grande", "height": 3953, "lat": -35.583333333, "lon": -70.75, "country": "Chile"}, {"name": "Koip Peak", "height": 3953, "lat": 37.8137215, "lon": -119.2015443, "country": "United States"}, {"name": "Two Eagle Peak", "height": 3952, "lat": 37.12966, "lon": -118.52288, "country": "United States"}, {"name": "Mount Robinson", "height": 3952, "lat": 37.11771, "lon": -118.51733, "country": "United States"}, {"name": "Cerro Copajira", "height": 3952, "lat": -18.85046, "lon": -67.52985, "country": "Bolivia"}, {"name": "Cerro Kapa", "height": 3952, "lat": -19.9142, "lon": -67.7371, "country": "Bolivia"}, {"name": "Cerro Tihu Casay", "height": 3952, "lat": -21.05453, "lon": -67.38261, "country": "Bolivia"}, {"name": "Kōh-e Shotur Parīdah", "height": 3952, "lat": 35.079444444, "lon": 67.371388888, "country": "Afghanistan"}, {"name": "Yushan Main Peak", "height": 3952, "lat": 23.47, "lon": 120.957266666, "country": "Taiwan"}, {"name": "Mount Sopris", "height": 3952, "lat": 39.26306, "lon": -107.17583, "country": "United States"}, {"name": "Ouray Peak", "height": 3951, "lat": 39.054166666, "lon": -106.565, "country": "United States"}, {"name": "Cobre Loma", "height": 3951, "lat": -20.9567, "lon": -66.4258, "country": "Bolivia"}, {"name": "Cerro Chipapa", "height": 3951, "lat": -21.0975, "lon": -68.2958, "country": "Bolivia"}, {"name": "Cerro Jachatomalaque", "height": 3951, "lat": -20.6575, "lon": -68.0002, "country": "Bolivia"}, {"name": "Cerro Mutucuro", "height": 3951, "lat": -20.66667, "lon": -67.63333, "country": "Bolivia"}, {"name": "Cerro Quikar Kkollu", "height": 3951, "lat": -18.72118, "lon": -68.70258, "country": "Bolivia"}, {"name": "Arrow Peak", "height": 3951, "lat": 36.92827, "lon": -118.49149, "country": "United States"}, {"name": "Evans Peak", "height": 3950, "lat": -78.2833, "lon": -85.9667, "country": ""}, {"name": "Pari Urqu", "height": 3950, "lat": -19.58333333, "lon": -65.75, "country": "Bolivia"}, {"name": "Cerro Tarumita", "height": 3950, "lat": -17.57, "lon": -67.1858, "country": "Bolivia"}, {"name": "Kōh-e Rāk", "height": 3950, "lat": 36.550277777, "lon": 71.22, "country": "Afghanistan"}, {"name": "Scylla", "height": 3949, "lat": 37.07994, "lon": -118.68955, "country": "United States"}, {"name": "Cerro Guapote", "height": 3949, "lat": -20.2182, "lon": -65.88903, "country": "Bolivia"}, {"name": "Calvario Loma", "height": 3949, "lat": -17.445, "lon": -68.4142, "country": "Bolivia"}, {"name": "Cerro Jasuyo", "height": 3948, "lat": -16.1, "lon": -69.0525, "country": "Bolivia"}, {"name": "Cerro Murumuntani", "height": 3947, "lat": -19.80231, "lon": -67.74166, "country": "Bolivia"}, {"name": "Sillo Kkollu Loma", "height": 3947, "lat": -18.6825, "lon": -68.79111, "country": "Bolivia"}, {"name": "Clark Peak", "height": 3947, "lat": 40.6068, "lon": -105.93, "country": "United States"}, {"name": "Agassizhorn", "height": 3947, "lat": 46.546580555, "lon": 8.114438888, "country": "Switzerland"}, {"name": "Lone Pine Peak", "height": 3947, "lat": 36.5616, "lon": -118.22509, "country": "United States"}, {"name": "Lone Pine Peak", "height": 3947, "lat": 36.5619, "lon": -118.226, "country": "United States"}, {"name": "Chocos Pampa", "height": 3946, "lat": -20.945, "lon": -67.5133, "country": "Bolivia"}, {"name": "Crater Jiskha Phia", "height": 3946, "lat": -18.61528, "lon": -68.75361, "country": "Bolivia"}, {"name": "Cerro Yahuar Kkollu", "height": 3946, "lat": -18.67972, "lon": -68.93389, "country": "Bolivia"}, {"name": "Cerro Canlla Chuto", "height": 3946, "lat": -17.8017, "lon": -66.7025, "country": "Bolivia"}, {"name": "Cerro Boyeca", "height": 3946, "lat": -19.08343, "lon": -65.90152, "country": "Bolivia"}, {"name": "Mont Pelvoux", "height": 3946, "lat": 44.898056, "lon": 6.393333, "country": "France"}, {"name": "Kōh-e Kalān", "height": 3946, "lat": 33.011666666, "lon": 63.939166666, "country": "Afghanistan"}, {"name": "Mount Richthofen", "height": 3946, "lat": 40.4694, "lon": -105.895, "country": "United States"}, {"name": "Kkollu Loma", "height": 3945, "lat": -20.2017, "lon": -68.4375, "country": "Bolivia"}, {"name": "Mount Shahvar", "height": 3945, "lat": 36.575833333, "lon": 54.758055555, "country": "Iran"}, {"name": "Cerro Tarina", "height": 3945, "lat": -18.65, "lon": -68.96667, "country": "Bolivia"}, {"name": "Kōh-e Isabōk", "height": 3945, "lat": 35.163055555, "lon": 70.745277777, "country": "Afghanistan"}, {"name": "Banner Peak", "height": 3945, "lat": 37.6966, "lon": -119.195, "country": "United States"}, {"name": "Star Mountain", "height": 3944, "lat": 39.061666666, "lon": -106.533333333, "country": "United States"}, {"name": "Yana Qaqa", "height": 3944, "lat": -18.78222222, "lon": -65.71472222, "country": "Bolivia"}, {"name": "Qarah Bayū", "height": 3944, "lat": 33.816388888, "lon": 67.694722222, "country": "Afghanistan"}, {"name": "Muriel Peak", "height": 3943, "lat": 37.21719, "lon": -118.69303, "country": "United States"}, {"name": "Tsengel Khairkhan", "height": 3943, "lat": 48.6475, "lon": 89.1561, "country": "Mongolia"}, {"name": "Cerro Jilapso", "height": 3943, "lat": -20.06168, "lon": -66.42139, "country": "Bolivia"}, {"name": "Cerro Chijchi Rumijoj", "height": 3943, "lat": -20.19207, "lon": -64.87146, "country": "Bolivia"}, {"name": "Kōh-e Kaland", "height": 3943, "lat": 34.585833333, "lon": 68.433333333, "country": "Afghanistan"}, {"name": "Rēg Rēg", "height": 3943, "lat": 34.984444444, "lon": 68.218888888, "country": "Afghanistan"}, {"name": "Ushkovsky", "height": 3943, "lat": 56.066666666, "lon": 160.483333333, "country": "Russia"}, {"name": "Piz Argient", "height": 3943, "lat": 46.365911111, "lon": 9.92525, "country": "Switzerland, Italy"}, {"name": "Cerro Caisacama", "height": 3942, "lat": -20.38333, "lon": -66.61667, "country": "Bolivia"}, {"name": "Kōh-e Qalāt", "height": 3942, "lat": 35.398333333, "lon": 69.793333333, "country": "Afghanistan"}, {"name": "Mount Julian", "height": 3942, "lat": 40.3711, "lon": -105.757, "country": "United States"}, {"name": "Cerro Porta Vinto", "height": 3941, "lat": -19.83433, "lon": -68.16944, "country": "Bolivia"}, {"name": "Pilaya Vinto Lomas", "height": 3941, "lat": -21.24493, "lon": -68.15764, "country": "Bolivia"}, {"name": "Mount Taftan", "height": 3941, "lat": 28.6, "lon": 61.133333333, "country": "Iran"}, {"name": "Faure Peak", "height": 3940, "lat": -85.7, "lon": -128.58333, "country": ""}, {"name": "Mount Ruskin", "height": 3940, "lat": 36.9784671, "lon": -118.4733528, "country": "United States"}, {"name": "Cerro Kanatiri", "height": 3940, "lat": -18.75059, "lon": -65.72416, "country": "Bolivia"}, {"name": "Jisk'a Uma", "height": 3940, "lat": -17.14027778, "lon": -67.54138889, "country": "Bolivia"}, {"name": "Mount Owen", "height": 3940, "lat": 43.7469, "lon": -110.798, "country": "United States"}, {"name": "Cerro Chakhe", "height": 3939, "lat": -20.9008, "lon": -67.3817, "country": "Bolivia"}, {"name": "Mount McGee", "height": 3938, "lat": 37.1388212, "lon": -118.738153, "country": "United States"}, {"name": "Mount Khalatsa", "height": 3938, "lat": 42.598888888, "lon": 43.836666666, "country": "Russia"}, {"name": "Cerro Churayaca", "height": 3938, "lat": -19.08333, "lon": -68.45, "country": "Bolivia"}, {"name": "Cerro Turinturini", "height": 3938, "lat": -17.61, "lon": -67.35, "country": "Bolivia"}, {"name": "Kōh-e Nulum", "height": 3938, "lat": 36.226388888, "lon": 70.195, "country": "Afghanistan"}, {"name": "Cerro Montes Claros", "height": 3937, "lat": -21.1358, "lon": -67.1933, "country": "Bolivia"}, {"name": "Cerro Maraga", "height": 3937, "lat": -19.4914, "lon": -67.5927, "country": "Bolivia"}, {"name": "Hatun Hirka", "height": 3937, "lat": -9.75888889, "lon": -76.28555556, "country": "Peru"}, {"name": "Mount Ickes", "height": 3936, "lat": 36.93271, "lon": -118.43927, "country": "United States"}, {"name": "Ajusco", "height": 3936, "lat": 19.2075, "lon": -99.258055555, "country": "Mexico"}, {"name": "Cerro Cunamani", "height": 3936, "lat": -16.5692, "lon": -68.015, "country": "Bolivia"}, {"name": "Horno Loma", "height": 3936, "lat": -20.989, "lon": -66.4897, "country": "Bolivia"}, {"name": "Cerro Quelacarin", "height": 3936, "lat": -21.0892, "lon": -67.4575, "country": "Bolivia"}, {"name": "Darwāzah-ye Alān", "height": 3936, "lat": 36.616388888, "lon": 70.469166666, "country": "Afghanistan"}, {"name": "Piz Roseg", "height": 3935, "lat": 46.37375, "lon": 9.883083333, "country": "Switzerland"}, {"name": "Mount Gardiner", "height": 3934, "lat": 36.80611111, "lon": -118.45916667, "country": "United States"}, {"name": "Bietschhorn", "height": 3934, "lat": 46.39125, "lon": 7.850075, "country": "Switzerland"}, {"name": "Cerro Taleguilla", "height": 3934, "lat": -20.2892, "lon": -66.4074, "country": "Bolivia"}, {"name": "Cerro Witu", "height": 3934, "lat": -20.24399, "lon": -66.29817, "country": "Bolivia"}, {"name": "Awrām Ghar", "height": 3934, "lat": 35.319444444, "lon": 71.143888888, "country": "Afghanistan"}, {"name": "A‘lá Kōh", "height": 3934, "lat": 33.723888888, "lon": 67.223888888, "country": "Afghanistan"}, {"name": "Kōh-e Surkh Gulī", "height": 3934, "lat": 33.921666666, "lon": 67.799166666, "country": "Afghanistan"}, {"name": "Cerro Kachu Kkollu", "height": 3933, "lat": -18.64944, "lon": -68.71778, "country": "Bolivia"}]