[{"name": "Risco Plateado", "height": 4999, "lat": -34.918333333, "lon": -69.994166666, "country": "Argentina"}, {"name": "Kunturiri (Pacajes)", "height": 4998, "lat": -17.7725, "lon": -69.0839, "country": "Bolivia"}, {"name": "Cerro Bacaise", "height": 4997, "lat": -22.3573, "lon": -67.0174, "country": "Bolivia"}, {"name": "Aqup'ukru", "height": 4997, "lat": -15.4208, "lon": -70.6869, "country": "Peru"}, {"name": "Tamboragra", "height": 4996, "lat": -10.515, "lon": -75.90722222, "country": "Peru"}, {"name": "Laram Q'awa", "height": 4996, "lat": -17.84388889, "lon": -69.15416667, "country": "Bolivia"}, {"name": "Yana Chuku", "height": 4996, "lat": -10.45333333, "lon": -75.89083333, "country": "Peru"}, {"name": "Mount Blackburn", "height": 4996, "lat": 61.731908333, "lon": -143.439297222, "country": "United States"}, {"name": "Kōh-e Yazhmī", "height": 4995, "lat": 35.642777777, "lon": 70.77, "country": "Afghanistan"}, {"name": "Pirhuane", "height": 4994, "lat": -16.2597, "lon": -70.8236, "country": "Peru"}, {"name": "Cerro Llica Khaua", "height": 4993, "lat": -18.8269, "lon": -68.8792, "country": "Bolivia"}, {"name": "Cerro Kuli Orkho", "height": 4993, "lat": -22.08543, "lon": -67.07241, "country": "Bolivia"}, {"name": "Puka (Peru)", "height": 4993, "lat": -12.6339, "lon": -75.5692, "country": "Peru"}, {"name": "Kōh-e Dūāb", "height": 4992, "lat": 36.139722222, "lon": 70.473888888, "country": "Afghanistan"}, {"name": "Pitusiray", "height": 4991, "lat": -13.27527778, "lon": -71.98694444, "country": "Peru"}, {"name": "Altos de los Arrieros", "height": 4990, "lat": -34.611944444, "lon": -70.378888888, "country": "Chile"}, {"name": "Cerro Huaranaca", "height": 4990, "lat": -16.3892, "lon": -68.0692, "country": "Bolivia"}, {"name": "Gora Boz-Baytal-Bashi", "height": 4990, "lat": 38.374722222, "lon": 73.090555555, "country": "Tajikistan"}, {"name": "Salla Qullu", "height": 4990, "lat": -18.46666667, "lon": -68.98333333, "country": "Bolivia"}, {"name": "Kōh-e Ḩasan", "height": 4988, "lat": 36.221388888, "lon": 70.354444444, "country": "Afghanistan"}, {"name": "Laram Q'awa (Pando)", "height": 4988, "lat": -17.2842, "lon": -69.4069, "country": "Bolivia"}, {"name": "Qaral", "height": 4988, "lat": -20.8186, "lon": -67.7814, "country": "Bolivia"}, {"name": "Wila Salla", "height": 4987, "lat": -16.1708, "lon": -70.3017, "country": "Peru"}, {"name": "Canchacanchajasa", "height": 4987, "lat": -13.22, "lon": -72.0089, "country": "Peru"}, {"name": "Kōh-e Dudargī", "height": 4986, "lat": 35.665555555, "lon": 70.958888888, "country": "Afghanistan"}, {"name": "Mount Bona", "height": 4986, "lat": 61.3856, "lon": -141.749, "country": "United States"}, {"name": "Peak 4985", "height": 4985, "lat": 38.71582, "lon": 71.757299, "country": "Tajikistan"}, {"name": "Tserko Ri", "height": 4985, "lat": 28.2132408, "lon": 85.6004521, "country": "Nepal"}, {"name": "Yuraq Urqu (Arequipa)", "height": 4985, "lat": -15.2044, "lon": -72.5419, "country": "Peru"}, {"name": "Ch'iyar Jaqhi", "height": 4984, "lat": -18.35694444, "lon": -69.01138889, "country": "Bolivia"}, {"name": "Cerro Cueva Punta", "height": 4983, "lat": -21.90896, "lon": -67.72688, "country": "Bolivia"}, {"name": "Kōh-e Sūrgul", "height": 4982, "lat": 35.139444444, "lon": 68.480833333, "country": "Afghanistan"}, {"name": "Awqa Urqu", "height": 4982, "lat": -12.9458, "lon": -75.4283, "country": "Peru"}, {"name": "Jisk'a Chukita", "height": 4980, "lat": -16.21111111, "lon": -68.18166667, "country": "Bolivia"}, {"name": "Puywan", "height": 4980, "lat": -9.63306, "lon": -77.2458, "country": "Peru"}, {"name": "Wankarani", "height": 4980, "lat": -18.1317, "lon": -68.3469, "country": "Bolivia"}, {"name": "Awkiwatu", "height": 4980, "lat": -15.073055555, "lon": -73.190833333, "country": "Peru"}, {"name": "Kimsa Waylla", "height": 4980, "lat": -19.6072, "lon": -65.67, "country": "Bolivia"}, {"name": "Cerro Pucu Pucuni", "height": 4979, "lat": -18.8717, "lon": -68.7867, "country": "Bolivia"}, {"name": "K'illima Parki", "height": 4979, "lat": -17.7903, "lon": -69.09, "country": "Bolivia"}, {"name": "Katyn-Tau", "height": 4979, "lat": 43.029722222, "lon": 43.036388888, "country": "Russia"}, {"name": "Talgar peak", "height": 4979, "lat": 43.11833333, "lon": 77.34083333, "country": "Kazakhstan"}, {"name": "Pico Bolívar", "height": 4978, "lat": 8.540861111, "lon": -71.0465, "country": "Venezuela"}, {"name": "Kukurtlu", "height": 4978, "lat": 43.341388888, "lon": 42.406111111, "country": "Russia"}, {"name": "Kōh-e Dasht-e Kalān", "height": 4977, "lat": 36.091388888, "lon": 70.796666666, "country": "Afghanistan"}, {"name": "Kōh-e Shilik", "height": 4977, "lat": 35.851944444, "lon": 70.934722222, "country": "Afghanistan"}, {"name": "Wank'ap'iti", "height": 4976, "lat": -9.78722222, "lon": -77.52472222, "country": "Peru"}, {"name": "Sar-e Gurdarah", "height": 4975, "lat": 36.0875, "lon": 70.578055555, "country": "Afghanistan"}, {"name": "Tira K'ark'a", "height": 4974, "lat": -16.1319, "lon": -68.3608, "country": "Bolivia"}, {"name": "Ari Qullu Phujru", "height": 4974, "lat": -18.4542, "lon": -68.9914, "country": "Bolivia"}, {"name": "Willk'i", "height": 4974, "lat": -18.39861111, "lon": -69.02222222, "country": "Bolivia"}, {"name": "Kōh-e Chap Darah", "height": 4973, "lat": 36.184444444, "lon": 70.4225, "country": "Afghanistan"}, {"name": "Gauri Jhundha", "height": 4971, "lat": 32.246666666, "lon": 76.463333333, "country": "India"}, {"name": "Wayna Potosí", "height": 4969, "lat": -18.0483, "lon": -68.1558, "country": "Bolivia"}, {"name": "Jiuding Shan", "height": 4969, "lat": 31.54333333, "lon": 103.85333333, "country": "People's Republic of China"}, {"name": "Q'ulini", "height": 4968, "lat": -16.3158, "lon": -68.0481, "country": "Bolivia"}, {"name": "Cordillera Cabaray", "height": 4965, "lat": -19.13333, "lon": -68.65, "country": "Bolivia"}, {"name": "Kōh-e Kapikā", "height": 4965, "lat": 35.994444444, "lon": 70.225555555, "country": "Afghanistan"}, {"name": "Kōh-e Rakhōy", "height": 4965, "lat": 36.028888888, "lon": 70.474444444, "country": "Afghanistan"}, {"name": "Kōh-e Tōp-Sakhījān", "height": 4965, "lat": 35.083888888, "lon": 68.310277777, "country": "Afghanistan"}, {"name": "Wathiyaqucha", "height": 4965, "lat": -10.6775, "lon": -77.0408, "country": "Peru"}, {"name": "Gora Kukhirau", "height": 4964, "lat": 38.400557, "lon": 71.616445, "country": "Tajikistan"}, {"name": "Mount Zheduo", "height": 4962, "lat": 30.1025, "lon": 101.813333333, "country": ""}, {"name": "Bigumnās", "height": 4962, "lat": 35.541388888, "lon": 71.170277777, "country": "Afghanistan"}, {"name": "Sirk'i", "height": 4962, "lat": -18.9658, "lon": -66.6606, "country": "Bolivia"}, {"name": "Cerro Milliri", "height": 4961, "lat": -20.63333, "lon": -68.46667, "country": "Bolivia"}, {"name": "Cerro Bofedal", "height": 4960, "lat": -20.7017, "lon": -68.5317, "country": "Bolivia"}, {"name": "Kōh-e Sar-e Tund", "height": 4960, "lat": 35.749722222, "lon": 70.481111111, "country": "Afghanistan"}, {"name": "Wila Quta (Larecaja)", "height": 4960, "lat": -15.7778, "lon": -68.5575, "country": "Bolivia"}, {"name": "P'iq'iñ Q'ara", "height": 4960, "lat": -17.00444444, "lon": -67.44555556, "country": "Bolivia"}, {"name": "Wamanripayuq", "height": 4960, "lat": -10.4425, "lon": -76.03138889, "country": "Peru"}, {"name": "Achuma", "height": 4960, "lat": -16.7906, "lon": -67.5308, "country": "Bolivia"}, {"name": "Shota Rustaveli Peak", "height": 4960, "lat": 43.007777777, "lon": 43.071666666, "country": "Russia"}, {"name": "Q'illu Urqu", "height": 4960, "lat": -19.76666667, "lon": -65.65, "country": "Bolivia"}, {"name": "Qolleh-ye Sar-e Owshnūgān", "height": 4958, "lat": 36.359444444, "lon": 70.437777777, "country": "Afghanistan"}, {"name": "Pakawalpit", "height": 4957, "lat": 35.584166666, "lon": 71.064166666, "country": "Afghanistan"}, {"name": "Antara", "height": 4957, "lat": -13.3119, "lon": -74.8406, "country": "Peru"}, {"name": "Q'ara Qullu", "height": 4956, "lat": -15.9483, "lon": -68.5458, "country": "Bolivia"}, {"name": "Puca Mauras", "height": 4955, "lat": -15.45361111, "lon": -72.23027778, "country": "Peru"}, {"name": "Digānāz", "height": 4954, "lat": 35.690277777, "lon": 71.1225, "country": "Afghanistan"}, {"name": "Cerro Huallatani", "height": 4954, "lat": -16.3108, "lon": -68.2092, "country": "Bolivia"}, {"name": "Puka Urqu", "height": 4954, "lat": -14.45916667, "lon": -71.10277778, "country": "Peru"}, {"name": "Cerro Alcoak", "height": 4953, "lat": -22.4467, "lon": -66.8017, "country": "Bolivia"}, {"name": "Kōh-e Shākh Bīm", "height": 4953, "lat": 36.318888888, "lon": 70.359166666, "country": "Afghanistan"}, {"name": "Ch'uxña Quta (Pacajes)", "height": 4952, "lat": -17.8775, "lon": -68.9731, "country": "Bolivia"}, {"name": "Gora Uy-Bulak", "height": 4950, "lat": 39.1992, "lon": 73.4242, "country": "Tajikistan"}, {"name": "Jach'a Jipiña", "height": 4950, "lat": -16.1986, "lon": -68.2892, "country": "Bolivia"}, {"name": "Puka Urqu", "height": 4950, "lat": -14.5606, "lon": -72.5144, "country": "Peru"}, {"name": "Ch'ulla Rinri", "height": 4950, "lat": -15.0825, "lon": -70.71166667, "country": "Peru"}, {"name": "Sisiwa", "height": 4949, "lat": -14.5542, "lon": -72.6086, "country": "Peru"}, {"name": "Mount Sanford", "height": 4949, "lat": 62.213888888, "lon": -144.128888888, "country": "United States"}, {"name": "Wila Qullu", "height": 4948, "lat": -20.3333, "lon": -68.65, "country": "Bolivia"}, {"name": "Pik SNK Kirgisii", "height": 4947, "lat": 41.820153, "lon": 78.207217, "country": "Kyrgyzstan"}, {"name": "Wira Wira", "height": 4946, "lat": -8.81111111, "lon": -77.58055556, "country": "Peru"}, {"name": "Santa Isabel", "height": 4945, "lat": 4.81666667, "lon": -75.36666667, "country": "Colombia"}, {"name": "Wanakuni (Sud Yungas)", "height": 4944, "lat": -16.4631, "lon": -67.8722, "country": "Bolivia"}, {"name": "Salla Jipiña", "height": 4944, "lat": -16.3644, "lon": -68.0558, "country": "Bolivia"}, {"name": "Tikti Punta", "height": 4944, "lat": -9.63, "lon": -76.47527778, "country": "Peru"}, {"name": "Yunkani", "height": 4943, "lat": -16.8606, "lon": -70.2447, "country": "Peru"}, {"name": "Marairazo", "height": 4943, "lat": -11.62472222, "lon": -75.21138889, "country": "Peru"}, {"name": "Kōh-e Kirichak", "height": 4942, "lat": 36.14008, "lon": 70.59312, "country": "Afghanistan"}, {"name": "Sawsi", "height": 4942, "lat": -15.0331, "lon": -72.1106, "country": "Peru"}, {"name": "Paxsi", "height": 4941, "lat": -15.0131, "lon": -72.9317, "country": "Peru"}, {"name": "Kōh-e Sar-e Rubāghūn", "height": 4941, "lat": 36.072777777, "lon": 70.524722222, "country": "Afghanistan"}, {"name": "Pas-e Ambak", "height": 4940, "lat": 36.29, "lon": 70.390277777, "country": "Afghanistan"}, {"name": "Chhāliṅ Ḍā̃ḍā", "height": 4940, "lat": 29.56001, "lon": 82.67344, "country": "Nepal"}, {"name": "Ch'alla Willk'i (La Paz)", "height": 4940, "lat": -16.1842, "lon": -68.1725, "country": "Bolivia"}, {"name": "Wisk'achani", "height": 4940, "lat": -16.1883, "lon": -68.1081, "country": "Bolivia"}, {"name": "Ñuñuni Qalani", "height": 4940, "lat": -16.0656, "lon": -68.2078, "country": "Bolivia"}, {"name": "Jach'a Pata (Larecaja)", "height": 4940, "lat": -16.1, "lon": -68.2197, "country": "Bolivia"}, {"name": "Janq'u Quta", "height": 4940, "lat": -16.83583333, "lon": -67.51166667, "country": "Bolivia"}, {"name": "Pacoorcco", "height": 4940, "lat": -16.3028, "lon": -70.8172, "country": "Peru"}, {"name": "Humboldt peak", "height": 4940, "lat": 8.549661111, "lon": -70.996141666, "country": "Venezuela"}, {"name": "Mawk'a Tampu", "height": 4940, "lat": -19.58333333, "lon": -65.66666667, "country": "Bolivia"}, {"name": "Cerro San Francisco", "height": 4940, "lat": -33.857222222, "lon": -70.514722222, "country": "Chile"}, {"name": "Nasa Parqu", "height": 4939, "lat": -17.1158, "lon": -70.2625, "country": "Peru"}, {"name": "Kōh-e Chap Darah", "height": 4938, "lat": 36.203055555, "lon": 71.233611111, "country": "Afghanistan"}, {"name": "Cerro Lurjara", "height": 4937, "lat": -18.9758, "lon": -68.9967, "country": "Bolivia"}, {"name": "Ch'iyar Jaqhi", "height": 4937, "lat": -19.28333333, "lon": -66.45, "country": "Bolivia"}, {"name": "Cotacachi", "height": 4935, "lat": 0.360833333, "lon": -78.349166666, "country": "Ecuador"}, {"name": "Peak 4934", "height": 4934, "lat": 38.790093, "lon": 71.719583, "country": "Tajikistan"}, {"name": "Dāy-e Pisī Gul", "height": 4934, "lat": 35.446944444, "lon": 70.755555555, "country": "Afghanistan"}, {"name": "Wishka Hirka", "height": 4934, "lat": -9.96611, "lon": -77.28, "country": "Peru"}, {"name": "Wila Qullu (La Paz)", "height": 4932, "lat": -17.2953, "lon": -69.3989, "country": "Bolivia"}, {"name": "Nañuhuaico", "height": 4932, "lat": -13.19916667, "lon": -73.07527778, "country": "Peru"}, {"name": "Cerro Chekhapa", "height": 4930, "lat": -16.25, "lon": -68.0908, "country": "Bolivia"}, {"name": "Q'ara Qullu", "height": 4930, "lat": -17.15083333, "lon": -67.76666667, "country": "Bolivia"}, {"name": "Cadena Negra", "height": 4928, "lat": -16.16667, "lon": -68.31667, "country": "Bolivia"}, {"name": "Taypi K'uchu", "height": 4928, "lat": -16.0869, "lon": -68.4189, "country": "Bolivia"}, {"name": "Huamangore", "height": 4927, "lat": -15.2936, "lon": -72.2669, "country": "Peru"}, {"name": "Qullpani", "height": 4926, "lat": -16.215, "lon": -68.2722, "country": "Bolivia"}, {"name": "Wila Wila", "height": 4925, "lat": -15.9592, "lon": -70.4253, "country": "Peru"}, {"name": "K'uchu Hanka", "height": 4925, "lat": -10.42722222, "lon": -76.02916667, "country": "Peru"}, {"name": "Isankani", "height": 4925, "lat": -15.205, "lon": -71.09194444, "country": "Peru"}, {"name": "Kōh-e Kunḏāy", "height": 4924, "lat": 35.159444444, "lon": 69.738888888, "country": "Afghanistan"}, {"name": "Puka Urqu", "height": 4923, "lat": -15.2331, "lon": -73.1167, "country": "Peru"}, {"name": "Waylla", "height": 4923, "lat": -20.3667, "lon": -68.7333, "country": "Bolivia"}, {"name": "Laramani", "height": 4923, "lat": -14.6097, "lon": -71.1903, "country": "Peru"}, {"name": "Qullpapata", "height": 4922, "lat": -12.6728, "lon": -75.5519, "country": "Peru"}, {"name": "Pico La Concha", "height": 4922, "lat": 8.554888888, "lon": -71.026555555, "country": "Venezuela"}, {"name": "Cerro Kitiri", "height": 4921, "lat": -21.80414, "lon": -67.54697, "country": "Bolivia"}, {"name": "Kūh-e Kapīkāh", "height": 4920, "lat": 36.03361, "lon": 70.26639, "country": "Afghanistan"}, {"name": "Kōh-e ‘Arūs", "height": 4920, "lat": 36.378888888, "lon": 70.641666666, "country": "Afghanistan"}, {"name": "Jach'a Apachita", "height": 4920, "lat": -18.09611111, "lon": -68.34611111, "country": "Bolivia"}, {"name": "Allqamarini", "height": 4920, "lat": -14.6742, "lon": -69.1453, "country": "Bolivia"}, {"name": "Taypi Qullu", "height": 4920, "lat": -18.11166667, "lon": -68.36194444, "country": "Bolivia"}, {"name": "Yanaqucha", "height": 4920, "lat": -13.38444444, "lon": -72.32555556, "country": "Peru"}, {"name": "Puma Apachita", "height": 4920, "lat": -17.21555556, "lon": -66.43416667, "country": "Bolivia"}, {"name": "Quriwani", "height": 4920, "lat": -15.67083333, "lon": -68.59861111, "country": "Bolivia"}, {"name": "Mount Ch'uxña Quta", "height": 4920, "lat": -17.0, "lon": -67.38333333, "country": "Bolivia"}, {"name": "Yuraq Yuraq", "height": 4920, "lat": -19.6833, "lon": -65.65, "country": "Bolivia"}, {"name": "Chuwa Chuwani", "height": 4918, "lat": -17.9522, "lon": -68.9394, "country": "Bolivia"}, {"name": "Qullqi", "height": 4916, "lat": -15.1389, "lon": -70.4978, "country": "Peru"}, {"name": "Nevado Hailliguaya", "height": 4916, "lat": -16.03333, "lon": -68.38333, "country": "Bolivia"}, {"name": "Kōh-e Kūtalūk", "height": 4915, "lat": 36.313611111, "lon": 70.395555555, "country": "Afghanistan"}, {"name": "Cerro Mesada Negra", "height": 4915, "lat": -22.45042, "lon": -66.88227, "country": "Bolivia"}, {"name": "Anta", "height": 4915, "lat": -14.10972222, "lon": -71.01916667, "country": "Peru"}, {"name": "Kōh-e Kirichak", "height": 4912, "lat": 36.174166666, "lon": 70.589722222, "country": "Afghanistan"}, {"name": "Kōh-e Silikāyik", "height": 4912, "lat": 36.152222222, "lon": 70.707777777, "country": "Afghanistan"}, {"name": "Kōh-e Chōnduk", "height": 4911, "lat": 35.863333333, "lon": 69.950833333, "country": "Afghanistan"}, {"name": "Cerro Mestizo", "height": 4911, "lat": -21.9075, "lon": -66.9425, "country": "Bolivia"}, {"name": "Cerro Secuaico", "height": 4911, "lat": -22.31667, "lon": -67.53333, "country": "Bolivia"}, {"name": "Wila Pukarani", "height": 4910, "lat": -19.3306, "lon": -68.3097, "country": "Bolivia"}, {"name": "Qulluta", "height": 4908, "lat": -13.2558, "lon": -74.895, "country": "Peru"}, {"name": "Kunkush Punta", "height": 4907, "lat": -9.71778, "lon": -77.2947, "country": "Peru"}, {"name": "Ch'uxña Quta (Larecaja)", "height": 4907, "lat": -15.7425, "lon": -68.5806, "country": "Bolivia"}, {"name": "Wila Sirka", "height": 4906, "lat": -18.9647, "lon": -66.6825, "country": "Bolivia"}, {"name": "Ch'iyar Jaqhi", "height": 4906, "lat": -19.6611, "lon": -66.4133, "country": "Bolivia"}, {"name": "Cerro Chela", "height": 4905, "lat": -20.6683, "lon": -68.5008, "country": "Bolivia"}, {"name": "Kōh-e Parwarah", "height": 4905, "lat": 36.13242, "lon": 70.6947, "country": "Afghanistan"}, {"name": "Jisk'a Turini", "height": 4905, "lat": -16.0717, "lon": -68.2589, "country": "Bolivia"}, {"name": "Cerro Cuajral", "height": 4904, "lat": -21.83333, "lon": -66.63333, "country": "Bolivia"}, {"name": "Ch'alla Phujru", "height": 4904, "lat": -18.9964, "lon": -66.6433, "country": "Bolivia"}, {"name": "Cerro Gualcani", "height": 4903, "lat": -20.6042, "lon": -68.5008, "country": "Bolivia"}, {"name": "Munti Wayi", "height": 4902, "lat": -9.9625, "lon": -77.15138889, "country": "Peru"}, {"name": "Qillqa", "height": 4901, "lat": -14.7203, "lon": -71.0814, "country": "Peru"}, {"name": "Cerro Libro Libruni", "height": 4900, "lat": -18.2483, "lon": -68.52006, "country": "Bolivia"}, {"name": "Cerro Malmisa", "height": 4900, "lat": -19.09031, "lon": -65.75088, "country": "Bolivia"}, {"name": "Cahuish", "height": 4900, "lat": -9.67972, "lon": -77.2494, "country": "Peru"}, {"name": "Millu Hirka", "height": 4900, "lat": -9.41, "lon": -77.2889, "country": "Peru"}, {"name": "Huejo", "height": 4900, "lat": -14.62, "lon": -69.2922, "country": "Peru"}, {"name": "Wila Wilani", "height": 4900, "lat": -16.7747, "lon": -70.265, "country": "Peru"}, {"name": "Huayruruni", "height": 4900, "lat": -13.6503, "lon": -71.0669, "country": "Peru"}, {"name": "Jolpajaja", "height": 4900, "lat": -13.6611, "lon": -70.7122, "country": "Peru"}, {"name": "Puicutuni", "height": 4900, "lat": -13.6806, "lon": -70.7239, "country": "Peru"}, {"name": "Janq'u Uma", "height": 4900, "lat": -14.5689, "lon": -69.4631, "country": "Peru"}, {"name": "Qillwa Quta (Bolivia)", "height": 4900, "lat": -14.9528, "lon": -68.9669, "country": "Bolivia"}, {"name": "Qutañani", "height": 4900, "lat": -14.9864, "lon": -68.9456, "country": "Bolivia"}, {"name": "Wankar Quta Qullu", "height": 4900, "lat": -15.705, "lon": -68.5258, "country": "Bolivia"}, {"name": "Janq'u Willk'i", "height": 4900, "lat": -18.13944444, "lon": -68.39611111, "country": "Bolivia"}, {"name": "Q'ara Qullu", "height": 4900, "lat": -18.15722222, "lon": -68.35416667, "country": "Bolivia"}, {"name": "Quenuaorco", "height": 4900, "lat": -13.1775, "lon": -73.0106, "country": "Peru"}, {"name": "Saywa Punta", "height": 4900, "lat": -14.5931, "lon": -72.6814, "country": "Peru"}, {"name": "Hatun Urqu", "height": 4900, "lat": -13.3444, "lon": -74.7222, "country": "Peru"}, {"name": "Queullacocha", "height": 4900, "lat": -13.76527778, "lon": -71.28361111, "country": "Peru"}, {"name": "Chiaracce", "height": 4900, "lat": -14.2703, "lon": -70.8586, "country": "Peru"}, {"name": "Chiaraje", "height": 4900, "lat": -14.2494, "lon": -70.8875, "country": "Peru"}, {"name": "Qawiña", "height": 4900, "lat": -16.03222222, "lon": -68.455, "country": "Bolivia"}, {"name": "T'ula T'ulani", "height": 4900, "lat": -17.02138889, "lon": -67.41638889, "country": "Bolivia"}, {"name": "Parqu Quta", "height": 4900, "lat": -16.49416667, "lon": -67.87916667, "country": "Bolivia"}, {"name": "T'allani Urqu", "height": 4900, "lat": -14.82388889, "lon": -71.935, "country": "Peru"}, {"name": "P'isaqa Kunka", "height": 4900, "lat": -16.75722222, "lon": -70.00666667, "country": "Peru"}, {"name": "Lasu Pata", "height": 4900, "lat": -11.71333333, "lon": -74.87166667, "country": "Peru"}, {"name": "Huiscana", "height": 4900, "lat": -13.65972222, "lon": -70.69972222, "country": "Peru"}, {"name": "Qiwllaqucha", "height": 4900, "lat": -12.85833333, "lon": -74.98888889, "country": "Peru"}, {"name": "Qiwllaqucha", "height": 4900, "lat": -12.854444444, "lon": -74.986666666, "country": "Peru"}, {"name": "Sincholagua Volcano", "height": 4899, "lat": -0.54579444, "lon": -78.36658056, "country": "Ecuador"}, {"name": "Kōh-e Jaghdawēk", "height": 4898, "lat": 36.495555555, "lon": 71.262222222, "country": "Afghanistan"}, {"name": "Dāy-e Kamow", "height": 4896, "lat": 35.48679, "lon": 70.78847, "country": "Afghanistan"}, {"name": "Chashmah-ye Darāz", "height": 4896, "lat": 36.4575, "lon": 70.5917, "country": "Afghanistan"}, {"name": "Pik Semionova Tien-Shanskogo", "height": 4895, "lat": 42.521162, "lon": 74.571662, "country": "Kyrgyzstan"}, {"name": "Chaquicocha", "height": 4895, "lat": -13.26416667, "lon": -72.04805556, "country": "Peru"}, {"name": "Kōh-e Kōsōkar", "height": 4894, "lat": 35.568333333, "lon": 70.676111111, "country": "Afghanistan"}, {"name": "Mount Vinson", "height": 4892, "lat": -78.5252778, "lon": -85.6172222, "country": ""}, {"name": "Cerro Saxani", "height": 4892, "lat": -19.13333333, "lon": -68.41666667, "country": "Bolivia"}, {"name": "Parorjo", "height": 4891, "lat": -13.1753, "lon": -72.0528, "country": "Peru"}, {"name": "Cerro Llaytani", "height": 4890, "lat": -18.2272, "lon": -68.55142, "country": "Bolivia"}, {"name": "Cerro Huarin Uma", "height": 4890, "lat": -18.31194, "lon": -68.82167, "country": "Bolivia"}, {"name": "Yana Urqu", "height": 4890, "lat": -13.085277777, "lon": -74.978055555, "country": "Peru"}, {"name": "Mount Speke", "height": 4890, "lat": 0.398055555, "lon": 29.892222222, "country": "Uganda"}, {"name": "Cerro Alto del Volcán", "height": 4889, "lat": -27.396, "lon": -67.2853, "country": "Argentina"}, {"name": "Cerro Chua Chuani", "height": 4889, "lat": -17.9508, "lon": -68.9367, "country": "Bolivia"}, {"name": "Pik Bronenosec", "height": 4887, "lat": 42.189961, "lon": 79.878355, "country": "Kyrgyzstan"}, {"name": "Kōh-e Dasht-e Madyār", "height": 4887, "lat": 35.983333333, "lon": 70.269166666, "country": "Afghanistan"}, {"name": "Cerro Altiani", "height": 4886, "lat": -16.5308, "lon": -67.8975, "country": "Bolivia"}, {"name": "Kōh-e Chakawur", "height": 4886, "lat": 35.436111111, "lon": 70.048888888, "country": "Afghanistan"}, {"name": "Tomort", "height": 4886, "lat": 43.073333333, "lon": 94.346666666, "country": "People's Republic of China"}, {"name": "Kōh-e Khushwārī", "height": 4885, "lat": 35.943333333, "lon": 70.969722222, "country": "Afghanistan"}, {"name": "Qala Phusa (Larecaja)", "height": 4884, "lat": -15.7619, "lon": -68.5622, "country": "Bolivia"}, {"name": "Puncak Jaya", "height": 4884, "lat": -4.083333333, "lon": 137.183333333, "country": "Indonesia"}, {"name": "Guz̄ar Āb", "height": 4883, "lat": 36.353333333, "lon": 70.921944444, "country": "Afghanistan"}, {"name": "Pico Bonpland", "height": 4883, "lat": 8.5425, "lon": -71.003166666, "country": "Venezuela"}, {"name": "Kūh-e Chap Darreh", "height": 4882, "lat": 36.333055555, "lon": 70.381666666, "country": "Afghanistan"}, {"name": "Cerro Apa Porco", "height": 4881, "lat": -19.8291, "lon": -65.9787, "country": "Bolivia"}, {"name": "P'utu P'utu", "height": 4880, "lat": -17.145, "lon": -66.39833333, "country": "Bolivia"}, {"name": "Anta Maqana", "height": 4880, "lat": -13.26222222, "lon": -74.93444444, "country": "Peru"}, {"name": "Chullpa Chullpani", "height": 4878, "lat": -18.9203, "lon": -66.6489, "country": "Bolivia"}, {"name": "Quilindaña", "height": 4878, "lat": -0.784125, "lon": -78.33046, "country": "Ecuador"}, {"name": "Cerro Runtu Jarita", "height": 4877, "lat": -21.98229, "lon": -67.84267, "country": "Bolivia"}, {"name": "Mount Brown", "height": 4877, "lat": 52.380277777, "lon": -118.23, "country": "Canada"}, {"name": "Shangruti", "height": 4877, "lat": 34.74027778, "lon": 76.39722222, "country": "Pakistan, India"}, {"name": "Qullqi Chata", "height": 4876, "lat": -16.0986, "lon": -68.4108, "country": "Bolivia"}, {"name": "Cerro Entre Campanani", "height": 4875, "lat": -18.81889, "lon": -68.84806, "country": "Bolivia"}, {"name": "Suri Wasi", "height": 4875, "lat": -16.1217, "lon": -70.8786, "country": "Peru"}, {"name": "P'iq'iñ Qullu", "height": 4875, "lat": -15.8133, "lon": -68.5942, "country": "Bolivia"}, {"name": "Ch'iyar Qullu", "height": 4875, "lat": -15.8583, "lon": -68.5819, "country": "Bolivia"}, {"name": "Cerro Kenasani", "height": 4873, "lat": -16.015, "lon": -68.2683, "country": "Bolivia"}, {"name": "Cerro Tarqui", "height": 4873, "lat": -19.47926, "lon": -65.9631, "country": "Bolivia"}, {"name": "Jamp'aturi", "height": 4871, "lat": -16.3414, "lon": -67.9978, "country": "Bolivia"}, {"name": "Puca Jirka", "height": 4870, "lat": -9.42555556, "lon": -77.78, "country": "Peru"}, {"name": "Jachatacasirca", "height": 4870, "lat": -17.30722222, "lon": -70.01194444, "country": "Peru"}, {"name": "Sumantri", "height": 4870, "lat": -4.061944444, "lon": 137.185, "country": "Indonesia"}, {"name": "Pichuni Loma", "height": 4869, "lat": -18.21801, "lon": -68.51192, "country": "Bolivia"}, {"name": "Pastos Grandes Lomas", "height": 4867, "lat": -21.7211, "lon": -67.6639, "country": "Bolivia"}, {"name": "Kunturiri", "height": 4867, "lat": -19.745, "lon": -65.6322, "country": "Bolivia"}, {"name": "Qina Qina", "height": 4866, "lat": -17.0128, "lon": -67.2994, "country": "Bolivia"}, {"name": "Cerro Chicaliri", "height": 4865, "lat": -22.79025, "lon": -67.25907, "country": "Bolivia"}, {"name": "Cerro Khanchaj Orkho", "height": 4865, "lat": -20.96806, "lon": -68.08445, "country": "Bolivia"}, {"name": "Puka Parya", "height": 4865, "lat": -10.6783, "lon": -77.0244, "country": "Peru"}, {"name": "Cerro Corulio", "height": 4864, "lat": -20.0158, "lon": -66.7375, "country": "Bolivia"}, {"name": "Faraz", "height": 4863, "lat": 36.350277777, "lon": 70.881111111, "country": "Afghanistan"}, {"name": "Dāy-e Piţriwāt", "height": 4863, "lat": 35.354166666, "lon": 70.535833333, "country": "Afghanistan"}, {"name": "Jaruma", "height": 4863, "lat": -20.3975, "lon": -68.3964, "country": "Bolivia"}, {"name": "Kiswarani Q'asa", "height": 4863, "lat": -14.7658, "lon": -71.825, "country": "Peru"}, {"name": "Cerro Kkolani", "height": 4862, "lat": -18.24122, "lon": -68.5588, "country": "Bolivia"}, {"name": "Parya (Ayacucho)", "height": 4862, "lat": -13.8056, "lon": -74.625, "country": "Peru"}, {"name": "Ngga Pulu", "height": 4862, "lat": -4.057222222, "lon": 137.183611111, "country": "Indonesia"}, {"name": "Cerro Khoya Khuchu", "height": 4861, "lat": -18.80917, "lon": -68.8125, "country": "Bolivia"}, {"name": "Cerro Llancor", "height": 4861, "lat": -21.94994, "lon": -67.77337, "country": "Bolivia"}, {"name": "Cerro Pata Unu", "height": 4861, "lat": -20.6617, "lon": -68.25462, "country": "Bolivia"}, {"name": "Korona Peak", "height": 4860, "lat": 42.506666666, "lon": 74.566944444, "country": "Kyrgyzstan"}, {"name": "Quyqu", "height": 4860, "lat": -19.73055556, "lon": -66.14694444, "country": "Bolivia"}, {"name": "Qalsata", "height": 4860, "lat": -16.3508, "lon": -67.8642, "country": "Bolivia"}, {"name": "Palomo", "height": 4860, "lat": -34.607777777, "lon": -70.295, "country": "Chile"}, {"name": "Gistola", "height": 4860, "lat": 43.048055555, "lon": 43.025277777, "country": "Russia"}, {"name": "Yana Urqu", "height": 4860, "lat": -19.7833, "lon": -65.6333, "country": "Bolivia"}, {"name": "Cerro Chiar Jakke", "height": 4859, "lat": -18.30194, "lon": -68.84472, "country": "Bolivia"}, {"name": "Cerro Khara Ojjo", "height": 4859, "lat": -20.13395, "lon": -68.5274, "country": "Bolivia"}, {"name": "Cerro Uyullani", "height": 4858, "lat": -18.21515, "lon": -68.54657, "country": "Bolivia"}, {"name": "Kōtalī", "height": 4858, "lat": 35.3409, "lon": 69.8385, "country": "Afghanistan"}, {"name": "Yuraq Urqu (Arequipa-Moquegua)", "height": 4858, "lat": -16.0417, "lon": -70.8075, "country": "Peru"}, {"name": "Tetnuldi", "height": 4858, "lat": 43.031388888, "lon": 42.993055555, "country": "Georgia"}, {"name": "Cerro Chalviri", "height": 4857, "lat": -19.63333, "lon": -65.66667, "country": "Bolivia"}, {"name": "Kōh-e Gabar Āwūk", "height": 4857, "lat": 35.610277777, "lon": 70.527777777, "country": "Afghanistan"}, {"name": "Kōh-e Nāwak", "height": 4857, "lat": 35.681666666, "lon": 70.3525, "country": "Afghanistan"}, {"name": "Kyrgyz Alatau", "height": 4855, "lat": 42.5, "lon": 73.0, "country": "Kyrgyzstan, Kazakhstan"}, {"name": "Kyrgyz Alatau", "height": 4855, "lat": 42.500028, "lon": 74.583315, "country": "Kyrgyzstan, Kazakhstan"}, {"name": "Kyrgyz Alatau", "height": 4855, "lat": 42.341239, "lon": 76.14372, "country": "Kyrgyzstan, Kazakhstan"}, {"name": "Kyrgyz Alatau", "height": 4855, "lat": 42.91735, "lon": 71.499207, "country": "Kazakhstan"}]