[{"name": "Gyachung Kang", "height": 7952, "lat": 28.098055555, "lon": 86.742222222, "country": "Nepal, People's Republic of China"}, {"name": "Gasherbrum III", "height": 7946, "lat": 35.759444444, "lon": 76.641944444, "country": "Pakistan, People's Republic of China"}, {"name": "Annapurna II", "height": 7937, "lat": 28.53495, "lon": 84.12219, "country": "Nepal"}, {"name": "Annapurna II", "height": 7937, "lat": 28.53806, "lon": 84.135, "country": "Nepal"}, {"name": "Gasherbrum IV", "height": 7932, "lat": 35.759166666, "lon": 76.615833333, "country": "Pakistan, People's Republic of China"}, {"name": "Tenzing Peak", "height": 7916, "lat": 28.1058, "lon": 86.6847, "country": "Nepal, People's Republic of China"}, {"name": "Kangbachen", "height": 7902, "lat": 27.7166, "lon": 88.1105, "country": "Nepal"}, {"name": "Himalchuli", "height": 7893, "lat": 28.436111111, "lon": 84.639444444, "country": "Nepal"}, {"name": "Distaghil Sar", "height": 7885, "lat": 36.325833333, "lon": 75.188333333, "country": "Pakistan"}, {"name": "Ngadi Chuli", "height": 7871, "lat": 28.503333333, "lon": 84.568611111, "country": "Nepal"}, {"name": "Nuptse", "height": 7861, "lat": 27.966388888, "lon": 86.89, "country": "Nepal"}, {"name": "Khunyang Chhish", "height": 7852, "lat": 36.205277777, "lon": 75.207777777, "country": "Pakistan"}, {"name": "Masherbrum", "height": 7821, "lat": 35.6425, "lon": 76.310833333, "country": "Pakistan"}, {"name": "Nanda Devi", "height": 7816, "lat": 30.373888888, "lon": 79.970833333, "country": "India"}, {"name": "Chomo Lonzo", "height": 7804, "lat": 27.93, "lon": 87.108055555, "country": "People's Republic of China"}, {"name": "Batura Sar", "height": 7795, "lat": 36.51, "lon": 74.5225, "country": "Pakistan"}, {"name": "Rakaposhi", "height": 7788, "lat": 36.1425, "lon": 74.489166666, "country": "Pakistan"}, {"name": "Namcha Barwa", "height": 7782, "lat": 29.630555555, "lon": 95.055277777, "country": "People's Republic of China"}, {"name": "Zemu Gap Peak", "height": 7780, "lat": 27.6873, "lon": 88.1739, "country": "India"}, {"name": "Kanjut Sar", "height": 7760, "lat": 36.205, "lon": 75.418333333, "country": "Pakistan"}, {"name": "Gasherbrum II East", "height": 7758, "lat": 35.754392, "lon": 76.667191, "country": "Pakistan, People's Republic of China"}, {"name": "Kamet", "height": 7756, "lat": 30.92, "lon": 79.593333333, "country": "India"}, {"name": "Dhaulagiri II", "height": 7751, "lat": 28.76299, "lon": 83.38795, "country": "Nepal"}, {"name": "Saltoro Kangri", "height": 7742, "lat": 35.399578333, "lon": 76.847516666, "country": "Pakistan, India"}, {"name": "Jannu", "height": 7711, "lat": 27.666666666, "lon": 88.033333333, "country": "Nepal"}, {"name": "Terich Mir", "height": 7708, "lat": 36.245833333, "lon": 71.843888888, "country": "Pakistan"}, {"name": "Gurla Mandhata", "height": 7694, "lat": 30.438333333, "lon": 81.299166666, "country": "People's Republic of China"}, {"name": "Kangchungtse", "height": 7678, "lat": 27.915086, "lon": 87.078571, "country": "Nepal, People's Republic of China"}, {"name": "Saser Kangri", "height": 7672, "lat": 34.833333333, "lon": 77.733333333, "country": "India"}, {"name": "Chogolisa", "height": 7668, "lat": 35.610555555, "lon": 76.574444444, "country": "Pakistan"}, {"name": "Molamenqing", "height": 7661, "lat": 28.354722222, "lon": 85.810833333, "country": "People's Republic of China"}, {"name": "Kongur Tagh", "height": 7649, "lat": 38.593888888, "lon": 75.313333333, "country": "People's Republic of China"}, {"name": "Varaha Shikhar", "height": 7647, "lat": 28.578055555, "lon": 83.803333333, "country": "Nepal"}, {"name": "Shispare", "height": 7619, "lat": 6.440833333, "lon": 74.681111111, "country": "Pakistan"}, {"name": "Silberzacken", "height": 7597, "lat": 35.26333333, "lon": 74.60777778, "country": "Pakistan"}, {"name": "Peak 38", "height": 7590, "lat": 27.95578, "lon": 86.96451, "country": "Nepal, People's Republic of China"}, {"name": "Trivor", "height": 7577, "lat": 36.2875, "lon": 75.086111111, "country": "Pakistan"}, {"name": "Gangkhar Puensum", "height": 7570, "lat": 28.046944444, "lon": 90.455, "country": "Bhutan"}, {"name": "Mount Gongga", "height": 7556, "lat": 29.595833333, "lon": 101.879166666, "country": "People's Republic of China"}, {"name": "Annapurna III", "height": 7555, "lat": 28.58527778, "lon": 83.99, "country": "Nepal"}, {"name": "Muztagh Ata", "height": 7546, "lat": 38.278333333, "lon": 75.115833333, "country": "People's Republic of China"}, {"name": "Skyang Kangri", "height": 7545, "lat": 35.926666666, "lon": 76.567222222, "country": "Pakistan"}, {"name": "Changtse", "height": 7543, "lat": 28.025277777, "lon": 86.914166666, "country": "People's Republic of China"}, {"name": "Kula Kangri", "height": 7538, "lat": 28.226666666, "lon": 90.616388888, "country": "Bhutan, People's Republic of China"}, {"name": "Liankang Kangri", "height": 7534, "lat": 28.06399155, "lon": 90.44345856, "country": "Bhutan"}, {"name": "Yukshin Gardan Sar", "height": 7530, "lat": 36.25, "lon": 75.375, "country": "Pakistan"}, {"name": "Kongur Tiube", "height": 7530, "lat": 38.6164985, "lon": 75.1958104, "country": "People's Republic of China"}, {"name": "Annapurna IV", "height": 7525, "lat": 28.53639, "lon": 84.083, "country": "Nepal"}, {"name": "Annapurna IV", "height": 7525, "lat": 28.5375, "lon": 84.082778, "country": "Nepal"}, {"name": "Saser Kangri II", "height": 7518, "lat": 34.804519, "lon": 77.807511, "country": "India"}, {"name": "Mamostong Kangri", "height": 7516, "lat": 35.140833333, "lon": 77.5775, "country": "India"}, {"name": "Terich Mir West II", "height": 7510, "lat": 36.2618, "lon": 71.8306, "country": "Pakistan"}, {"name": "Saser Kangri III", "height": 7495, "lat": 34.844653, "lon": 77.785403, "country": "India"}, {"name": "Ismoil Somoni Peak", "height": 7495, "lat": 38.942732, "lon": 72.015347, "country": "Tajikistan"}, {"name": "Pumari Chhish", "height": 7492, "lat": 36.211111111, "lon": 75.252777777, "country": "Pakistan"}, {"name": "Noshaq", "height": 7492, "lat": 36.431666666, "lon": 71.828333333, "country": "Afghanistan, Pakistan"}, {"name": "Passu Sar", "height": 7478, "lat": 36.487777777, "lon": 74.587777777, "country": "Pakistan"}, {"name": "Teram Kangri", "height": 7462, "lat": 35.58, "lon": 77.078333333, "country": "Pakistan, India"}, {"name": "Jongsong Peak", "height": 7462, "lat": 27.881388888, "lon": 88.135833333, "country": "People's Republic of China"}, {"name": "Malubiting", "height": 7458, "lat": 36.038888888, "lon": 74.900833333, "country": "Pakistan"}, {"name": "Shar Tse", "height": 7457, "lat": 27.9493, "lon": 86.98318, "country": "Nepal"}, {"name": "Gangapurna", "height": 7455, "lat": 28.604722222, "lon": 83.964166666, "country": "Nepal"}, {"name": "Gangapurna", "height": 7455, "lat": 28.6054, "lon": 83.96336, "country": "Nepal"}, {"name": "Pungpa Ri", "height": 7445, "lat": 28.33309, "lon": 85.79434, "country": "People's Republic of China"}, {"name": "Jengish Chokusu", "height": 7439, "lat": 42.034662, "lon": 80.128713, "country": "Kyrgyzstan, People's Republic of China"}, {"name": "Sunanda Devi", "height": 7434, "lat": 30.366666666, "lon": 79.994444444, "country": "India"}, {"name": "K12", "height": 7428, "lat": 35.32133333, "lon": 76.98536111, "country": "India"}, {"name": "Yangra", "height": 7422, "lat": 28.391666666, "lon": 85.127222222, "country": "People's Republic of China"}, {"name": "Sia Kangri", "height": 7422, "lat": 35.663611111, "lon": 76.761388888, "country": "Pakistan"}, {"name": "Momhil Sar", "height": 7414, "lat": 36.31900556, "lon": 75.03524167, "country": "Pakistan"}, {"name": "Momhil Sar", "height": 7414, "lat": 36.317777777, "lon": 75.0375, "country": "Pakistan"}, {"name": "Kabru", "height": 7412, "lat": 27.635, "lon": 88.11833333, "country": "Nepal, India"}, {"name": "Skil Brum", "height": 7410, "lat": 35.850277777, "lon": 76.42, "country": "Pakistan, People's Republic of China"}, {"name": "Haramosh Peak", "height": 7406, "lat": 35.841388888, "lon": 74.897777777, "country": "Pakistan"}, {"name": "Istor-o-Nal", "height": 7403, "lat": 36.386944444, "lon": 71.889166666, "country": "Pakistan"}, {"name": "Ghent Kangri", "height": 7401, "lat": 35.5175, "lon": 76.800277777, "country": "Pakistan, India"}, {"name": "Terich Mir West III", "height": 7400, "lat": 36.2675, "lon": 71.8182, "country": "Pakistan"}, {"name": "Kunyang Chhish east", "height": 7400, "lat": 36.196599, "lon": 75.226126, "country": "Pakistan"}, {"name": "Ultar", "height": 7388, "lat": 36.399722222, "lon": 74.691944444, "country": "Pakistan"}, {"name": "Rimo I", "height": 7385, "lat": 35.355833333, "lon": 77.368055555, "country": "India"}, {"name": "Sherpi Kangri", "height": 7380, "lat": 35.465, "lon": 76.772222222, "country": "India"}, {"name": "Churen Himal", "height": 7371, "lat": 28.7316, "lon": 83.2096, "country": "Nepal"}, {"name": "Labuche Kang", "height": 7367, "lat": 28.3042, "lon": 86.3508, "country": "People's Republic of China"}, {"name": "Yebokangal Ri", "height": 7365, "lat": 28.372639, "lon": 85.771809, "country": "People's Republic of China"}, {"name": "Kirat Chuli", "height": 7365, "lat": 27.786944444, "lon": 88.194444444, "country": "Nepal, India"}, {"name": "Abi Gamin", "height": 7355, "lat": 30.93, "lon": 79.6, "country": "India"}, {"name": "Gimmigela Chuli", "height": 7350, "lat": 27.73333333, "lon": 88.15, "country": "Nepal, India"}, {"name": "Gimmigela Chuli", "height": 7350, "lat": 27.74, "lon": 88.15777778, "country": "Nepal, India"}, {"name": "Nangpai Gosum", "height": 7350, "lat": 28.06666667, "lon": 86.6, "country": "Nepal, People's Republic of China"}, {"name": "Nangpai Gosum", "height": 7350, "lat": 28.072222222, "lon": 86.614444444, "country": "Nepal, People's Republic of China"}, {"name": "Kunyang Chhish West", "height": 7350, "lat": 36.202729, "lon": 75.190506, "country": "Pakistan"}, {"name": "Talung", "height": 7349, "lat": 27.655, "lon": 88.14751, "country": "Nepal"}, {"name": "Saraghrar", "height": 7338, "lat": 36.5475, "lon": 72.116666666, "country": "Pakistan"}, {"name": "Terich Mir West IV", "height": 7338, "lat": 36.272, "lon": 71.8139, "country": "Pakistan"}, {"name": "Yutmaru Sar", "height": 7330, "lat": 36.22645, "lon": 75.36724, "country": "Pakistan"}, {"name": "Yutmaru Sar", "height": 7330, "lat": 36.2333, "lon": 75.3667, "country": "Pakistan"}, {"name": "Chomolhari", "height": 7326, "lat": 27.824166666, "lon": 89.27, "country": "Bhutan, People's Republic of China"}, {"name": "Chamlang", "height": 7319, "lat": 27.775833333, "lon": 86.98, "country": "Nepal"}, {"name": "Chongtar Kangri", "height": 7315, "lat": 35.919444444, "lon": 76.423055555, "country": "People's Republic of China"}, {"name": "Baltoro Kangri", "height": 7312, "lat": 35.647969444, "lon": 76.66975, "country": "Pakistan"}, {"name": "Siguang Ri", "height": 7308, "lat": 28.146944444, "lon": 86.685, "country": "People's Republic of China"}, {"name": "Siguang Ri", "height": 7308, "lat": 28.15, "lon": 86.6833, "country": "People's Republic of China"}, {"name": "Kangpenqing", "height": 7299, "lat": 28.55184, "lon": 85.54504, "country": "People's Republic of China"}, {"name": "Kangpenqing", "height": 7299, "lat": 28.55, "lon": 85.55, "country": "People's Republic of China"}, {"name": "The Crown", "height": 7295, "lat": 36.1083, "lon": 76.2125, "country": "People's Republic of China"}, {"name": "Gyala Peri", "height": 7294, "lat": 29.814166666, "lon": 94.968333333, "country": "People's Republic of China"}, {"name": "Porong Ri", "height": 7292, "lat": 28.389444444, "lon": 85.720277777, "country": "People's Republic of China"}, {"name": "Shingeik Zom", "height": 7291, "lat": 36.432, "lon": 71.869, "country": "Pakistan"}, {"name": "Summa Ri", "height": 7286, "lat": 35.865935, "lon": 76.445295, "country": "Pakistan, People's Republic of China"}, {"name": "Baintha Brakk", "height": 7285, "lat": 35.947777777, "lon": 75.753611111, "country": "Pakistan"}, {"name": "K6", "height": 7282, "lat": 35.41833333, "lon": 76.55166667, "country": "Pakistan"}, {"name": "Muztagh Tower", "height": 7273, "lat": 35.828333333, "lon": 76.360833333, "country": "Pakistan"}, {"name": "Mana", "height": 7272, "lat": 30.88083333, "lon": 79.61583333, "country": "India"}, {"name": "Diran", "height": 7266, "lat": 36.116666666, "lon": 74.666666666, "country": "Pakistan"}, {"name": "Urdok Kangri", "height": 7250, "lat": 35.70472222, "lon": 76.71694444, "country": "Pakistan, People's Republic of China"}, {"name": "Putha Hiunchuli", "height": 7246, "lat": 28.7475, "lon": 83.14583333, "country": "Nepal"}, {"name": "Apsarasas Kangri", "height": 7245, "lat": 35.538888888, "lon": 77.149166666, "country": "India, People's Republic of China"}, {"name": "Mukut Parbat", "height": 7242, "lat": 30.952222222, "lon": 79.570277777, "country": "India"}, {"name": "Rimo Kangri III", "height": 7233, "lat": 35.3749672, "lon": 77.3616666, "country": "India"}, {"name": "Langtang Lirung", "height": 7227, "lat": 28.256111111, "lon": 85.519444444, "country": "Nepal"}, {"name": "Khartaphu", "height": 7227, "lat": 28.0625, "lon": 86.9775, "country": "Nepal, People's Republic of China"}, {"name": "Kangphu Kang", "height": 7220, "lat": 28.155833333, "lon": 90.073333333, "country": "Bhutan, People's Republic of China"}, {"name": "Annapurna South", "height": 7219, "lat": 28.518, "lon": 83.806, "country": "Nepal"}, {"name": "Noijin Kangsang", "height": 7206, "lat": 28.9475, "lon": 90.179166666, "country": "People's Republic of China"}, {"name": "Langtang Ri", "height": 7205, "lat": 28.3814, "lon": 85.6836, "country": "Nepal, People's Republic of China"}, {"name": "Singhi Kangri", "height": 7202, "lat": 35.5989, "lon": 76.9828, "country": "Pakistan, People's Republic of China"}, {"name": "Singhi Kangri", "height": 7202, "lat": 35.6001, "lon": 76.9825, "country": "Pakistan, People's Republic of China"}, {"name": "Malangutti Sar", "height": 7202, "lat": 36.3642, "lon": 75.1311, "country": "Pakistan"}, {"name": "Lupghar Sar", "height": 7200, "lat": 36.348055555, "lon": 75.023055555, "country": "Pakistan"}, {"name": "Gurja Himal", "height": 7193, "lat": 28.67435, "lon": 83.275813, "country": "Nepal"}, {"name": "Kuksay Tagh", "height": 7184, "lat": 38.2958735, "lon": 75.1235845, "country": "People's Republic of China"}, {"name": "Melungtse", "height": 7181, "lat": 27.971111111, "lon": 86.4375, "country": "People's Republic of China"}, {"name": "Nepal Peak", "height": 7177, "lat": 27.776802, "lon": 88.182927, "country": "Nepal, India"}, {"name": "Liushi Shan", "height": 7167, "lat": 35.31583333, "lon": 80.91583333, "country": "People's Republic of China"}, {"name": "Chamar", "height": 7165, "lat": 28.55527778, "lon": 84.94527778, "country": "Nepal"}, {"name": "Yermanendu Kangri", "height": 7163, "lat": 35.635277777, "lon": 76.324166666, "country": "Pakistan"}, {"name": "Mount Nyenchen Tanglha", "height": 7162, "lat": 30.38886944, "lon": 90.56030278, "country": "People's Republic of China"}, {"name": "Pumori", "height": 7161, "lat": 28.015555555, "lon": 86.828055555, "country": "Nepal, People's Republic of China"}, {"name": "Snow Dome, Concordia", "height": 7160, "lat": 35.609722222, "lon": 76.605555555, "country": "Pakistan"}, {"name": "Hardeol", "height": 7151, "lat": 30.56, "lon": 80.01, "country": "India"}, {"name": "Gasherbrum V", "height": 7147, "lat": 35.729722222, "lon": 76.6125, "country": "Pakistan"}, {"name": "Latok I", "height": 7145, "lat": 35.92861111, "lon": 75.82333333, "country": "Pakistan"}, {"name": "Kampire Dior", "height": 7142, "lat": 36.6256, "lon": 74.3171, "country": "Pakistan"}, {"name": "Kampire Dior", "height": 7142, "lat": 36.641481, "lon": 74.329291, "country": "Pakistan"}, {"name": "Udren Zom", "height": 7140, "lat": 36.533333333, "lon": 71.983333333, "country": "Pakistan"}, {"name": "Nemjung", "height": 7140, "lat": 28.735, "lon": 84.41666667, "country": "Nepal"}, {"name": "Chaukhamba", "height": 7138, "lat": 30.749722222, "lon": 79.291111111, "country": "India"}, {"name": "Urdok II", "height": 7137, "lat": 35.68666667, "lon": 76.74666667, "country": "Pakistan, People's Republic of China"}, {"name": "Nun", "height": 7135, "lat": 33.98, "lon": 76.02166667, "country": "India"}, {"name": "Tilicho Peak", "height": 7134, "lat": 28.684444444, "lon": 83.804444444, "country": "Nepal"}, {"name": "Gauri Sankar", "height": 7134, "lat": 27.953333333, "lon": 86.335833333, "country": "Nepal, People's Republic of China"}, {"name": "Lenin Peak", "height": 7134, "lat": 39.343677, "lon": 72.877897, "country": "Soviet Union, Tajikistan, Kyrgyzstan"}, {"name": "Praqpa Kangri", "height": 7134, "lat": 35.829444444, "lon": 76.433055555, "country": "Pakistan"}, {"name": "Bularung Sar", "height": 7134, "lat": 36.3000127, "lon": 75.1284935, "country": "Pakistan"}, {"name": "Api", "height": 7132, "lat": 30.005277777, "lon": 80.929722222, "country": "Nepal"}, {"name": "Baruntse", "height": 7129, "lat": 27.883333333, "lon": 86.983333333, "country": "Nepal"}, {"name": "Ratna Chuli", "height": 7128, "lat": 28.864444444, "lon": 84.377222222, "country": "Nepal, People's Republic of China"}, {"name": "Paohanli Peak", "height": 7128, "lat": 27.93444444, "lon": 88.84388889, "country": "India"}, {"name": "Pauhunri", "height": 7128, "lat": 27.953333333, "lon": 88.8425, "country": "India, People's Republic of China"}, {"name": "Mandu Kangri", "height": 7127, "lat": 35.648326, "lon": 76.280179, "country": "Pakistan"}, {"name": "Himlung Himal", "height": 7126, "lat": 28.771864, "lon": 84.422124, "country": "Nepal"}, {"name": "Teri Kang", "height": 7124, "lat": 28.171884, "lon": 89.942222, "country": "Bhutan"}, {"name": "Pathibara", "height": 7123, "lat": 27.82073, "lon": 88.172922, "country": "India"}, {"name": "Chomolhari Kang", "height": 7121, "lat": 28.16619, "lon": 90.18256, "country": "Bhutan, People's Republic of China"}, {"name": "Trisul", "height": 7120, "lat": 30.312777777, "lon": 79.777222222, "country": "India"}, {"name": "Ganesh NW", "height": 7118, "lat": 28.37916667, "lon": 85.05666667, "country": "Nepal"}, {"name": "Latok II", "height": 7108, "lat": 35.91805556, "lon": 75.80138889, "country": "Pakistan"}, {"name": "Khunjang Chhish North", "height": 7108, "lat": 36.2508002, "lon": 75.2225, "country": "Pakistan"}, {"name": "Peak Ozodi", "height": 7105, "lat": 39.055855, "lon": 72.011744, "country": "Tajikistan"}, {"name": "Pabil", "height": 7104, "lat": 28.345833, "lon": 85.08, "country": "Nepal"}, {"name": "Lunpo Gangri", "height": 7095, "lat": 29.83333333, "lon": 84.61333333, "country": "People's Republic of China"}, {"name": "Lunpo Gangri", "height": 7095, "lat": 29.8408, "lon": 84.795, "country": "People's Republic of China"}, {"name": "Kangto", "height": 7090, "lat": 27.865, "lon": 92.5325, "country": "India"}, {"name": "Kohe Shakhawr", "height": 7084, "lat": 36.554184, "lon": 71.990007, "country": "Afghanistan, Pakistan"}, {"name": "Kun", "height": 7077, "lat": 34.013, "lon": 76.05684167, "country": "India"}, {"name": "Kun", "height": 7077, "lat": 34.02777778, "lon": 76.05416667, "country": "India"}, {"name": "Satopanth", "height": 7075, "lat": 30.845844, "lon": 79.21323, "country": "India"}, {"name": "Tirsuli", "height": 7074, "lat": 30.58, "lon": 80.02, "country": "India"}, {"name": "Lapche Kang II", "height": 7072, "lat": 28.304195, "lon": 86.321172, "country": "People's Republic of China"}, {"name": "Nyanang Ri", "height": 7071, "lat": 28.308461, "lon": 85.80673, "country": "People's Republic of China"}, {"name": "Chong Kumdan", "height": 7071, "lat": 35.193935, "lon": 77.585086, "country": "India"}, {"name": "Nobaism Zom", "height": 7070, "lat": 36.401693, "lon": 71.876071, "country": "Pakistan"}, {"name": "Rakhiot Peak", "height": 7070, "lat": 35.259961111, "lon": 74.637936111, "country": "Pakistan"}, {"name": "Dunagiri", "height": 7066, "lat": 30.5325, "lon": 79.83388889, "country": "India"}, {"name": "Nilgiri Himal", "height": 7061, "lat": 28.689166666, "lon": 83.746666666, "country": "Nepal"}, {"name": "Thulagi Chuli", "height": 7059, "lat": 28.527476, "lon": 84.520366, "country": "Nepal"}, {"name": "Khartachangri", "height": 7056, "lat": 28.11418, "lon": 86.993505, "country": "People's Republic of China"}, {"name": "Jomo Gangtse", "height": 7048, "lat": 29.903414, "lon": 90.024493, "country": "People's Republic of China"}, {"name": "Nyegyi Kansang", "height": 7047, "lat": 27.93666667, "lon": 92.66666667, "country": "India"}, {"name": "Lhakpa Ri", "height": 7045, "lat": 28.037811, "lon": 86.969831, "country": "People's Republic of China"}, {"name": "Salasungo", "height": 7043, "lat": 28.335, "lon": 85.121666666, "country": "Nepal, People's Republic of China"}, {"name": "Link Sar", "height": 7041, "lat": 35.4475, "lon": 76.5975, "country": "Pakistan"}, {"name": "Kohe Urgunt", "height": 7038, "lat": 36.658778, "lon": 72.161909, "country": "Afghanistan, Pakistan"}, {"name": "Gyaji Kang", "height": 7038, "lat": 28.733731, "lon": 84.366699, "country": "Nepal"}, {"name": "Shah Dhar", "height": 7038, "lat": 36.67166667, "lon": 72.23166667, "country": "Afghanistan, Pakistan"}, {"name": "Kezhen Peak", "height": 7038, "lat": 35.925, "lon": 76.175, "country": "People's Republic of China"}, {"name": "Tirsuli West", "height": 7035, "lat": 30.579166666, "lon": 80.003888888, "country": "India"}, {"name": "Saipal", "height": 7031, "lat": 29.890833333, "lon": 81.495, "country": "Nepal"}, {"name": "Padmanabh", "height": 7030, "lat": 35.4414, "lon": 77.1813, "country": "India"}, {"name": "Hungchi", "height": 7029, "lat": 28.035068, "lon": 86.758817, "country": "Nepal"}, {"name": "Koskulak Tagh", "height": 7028, "lat": 38.23277778, "lon": 75.11138889, "country": "People's Republic of China"}, {"name": "Koskulak Tagh", "height": 7028, "lat": 38.231856, "lon": 75.112454, "country": "People's Republic of China"}, {"name": "Spantik", "height": 7027, "lat": 36.057319444, "lon": 74.957983333, "country": "Pakistan"}, {"name": "Shudu Tsenpa", "height": 7024, "lat": 27.92691, "lon": 88.860705, "country": "India, People's Republic of China"}, {"name": "North Col", "height": 7020, "lat": 28.015833333, "lon": 86.925, "country": "People's Republic of China"}, {"name": "Chamshen Kangri", "height": 7017, "lat": 34.884166666, "lon": 77.8025, "country": "India"}, {"name": "Aq Tash", "height": 7016, "lat": 35.077417, "lon": 77.6371, "country": "India"}, {"name": "Pamri Sar", "height": 7016, "lat": 36.639293, "lon": 74.357583, "country": "Pakistan"}, {"name": "Palung Ri", "height": 7012, "lat": 28.129032, "lon": 86.644858, "country": "People's Republic of China"}, {"name": "Khan Tengri", "height": 7010, "lat": 42.210833333, "lon": 80.175, "country": "Kyrgyzstan, Kazakhstan, People's Republic of China"}, {"name": "Chong Kumdan II", "height": 7004, "lat": 35.195355, "lon": 77.53892, "country": "India"}]